{
  "data": [
    {
      "id": "AEJED",
      "name": "Jebel Dhannacv",
      "city": "Jebel Dhanna",
      "country": "United Arab Emirates",
      "alias": [
        "fff"
      ],
      "regions": [],
      "coordinates": [
        52.6126027,
        24.1915137
      ],
      "province": "Abu Dhabi",
      "timezone": "Asia/Dubai",
      "unlocs": [
        "AEJED"
      ],
      "code": "52050",
      "coordinates[0]": 52.612602
    },
    {
      "id": "AEKLF",
      "name": "Khor al Fakkan",
      "coordinates": [
        56.35,
        25.33
      ],
      "city": "Khor al Fakkan",
      "country": "United Arab Emirates",
      "alias": [],
      "regions": [],
      "timezone": "Asia/Dubai",
      "unlocs": [
        "AEKLF"
      ]
    },
    {
      "id": "AEPRA",
      "name": "Port Rashid",
      "city": "Port Rashid",
      "country": "United Arab Emirates",
      "alias": [],
      "regions": [],
      "coordinates": [
        55.2756505,
        25.284755
      ],
      "province": "Dubai",
      "timezone": "Asia/Dubai",
      "unlocs": [
        "AEPRA"
      ],
      "code": "52005"
    },
    {
      "id": "AEQIW",
      "name": "Umm al Qaiwain",
      "coordinates": [
        55.55,
        25.57
      ],
      "city": "Umm al Qaiwain",
      "country": "United Arab Emirates",
      "alias": [],
      "regions": [],
      "province": "Umm Al Quwain",
      "timezone": "Asia/Dubai",
      "unlocs": [
        "AEQIW"
      ]
    },
    {
      "id": "AERKT",
      "name": "Ras al Khaimah",
      "coordinates": [
        55.95,
        25.78
      ],
      "city": "Ras al Khaimah",
      "country": "United Arab Emirates",
      "alias": [],
      "regions": [],
      "province": "Ras al Khaimah",
      "timezone": "Asia/Dubai",
      "unlocs": [
        "AERKT"
      ],
      "code": "52000"
    },
    {
      "id": "AERUW",
      "name": "Ar Ruways",
      "coordinates": [
        52.73,
        24.12
      ],
      "city": "Ar Ruways",
      "country": "United Arab Emirates",
      "alias": [],
      "regions": [],
      "province": "Abu Dhabi",
      "timezone": "Asia/Dubai",
      "unlocs": [
        "AERUW"
      ]
    },
    {
      "id": "AESHJ",
      "name": "Sharjah",
      "coordinates": [
        55.38,
        25.35
      ],
      "city": "Sharjah",
      "country": "United Arab Emirates",
      "alias": [],
      "regions": [],
      "province": "Ash Shariqah [Sharjah]",
      "timezone": "Asia/Dubai",
      "unlocs": [
        "AESHJ"
      ],
      "code": "52070"
    },
    {
      "id": "AGANU",
      "name": "Antigua",
      "city": "Antigua",
      "country": "Antigua and Barbuda",
      "alias": [],
      "regions": [],
      "coordinates": [
        -61.8175207,
        17.0746557
      ],
      "timezone": "America/Antigua",
      "unlocs": [
        "AGANU"
      ],
      "code": "24831"
    },
    {
      "id": "AGSJO",
      "name": "Saint John's",
      "coordinates": [
        -61.85,
        17.12
      ],
      "city": "Saint John's",
      "country": "Antigua and Barbuda",
      "alias": [],
      "regions": [],
      "province": "Saint John",
      "timezone": "America/Antigua",
      "unlocs": [
        "AGSJO"
      ],
      "code": "24831"
    },
    {
      "id": "AIBLP",
      "name": "Blowing Point",
      "city": "Blowing Point",
      "country": "Anguilla",
      "alias": [],
      "regions": [],
      "coordinates": [
        -63.093518,
        18.177343
      ],
      "timezone": "America/Anguilla",
      "unlocs": [
        "AIBLP"
      ],
      "code": "24821"
    },
    {
      "id": "ALDRZ",
      "name": "Durres",
      "city": "Durrës",
      "country": "Albania",
      "alias": [],
      "regions": [],
      "coordinates": [
        19.4616074,
        41.3328072
      ],
      "timezone": "Europe/Tirane",
      "unlocs": [
        "ALDRZ"
      ],
      "code": "48109"
    },
    {
      "id": "ANBON",
      "name": "Bonaire",
      "city": "Bonaire",
      "country": "Netherlands Antilles",
      "alias": [],
      "regions": [],
      "coordinates": [
        -68.26238219999999,
        12.2018902
      ],
      "timezone": "America/Curacao",
      "unlocs": [
        "ANBON"
      ]
    },
    {
      "id": "ANCUR",
      "name": "Curacao",
      "city": "Curacao",
      "country": "Netherlands Antilles",
      "alias": [],
      "regions": [],
      "coordinates": [
        -68.8824233,
        12.1224221
      ],
      "province": "Curaçao",
      "timezone": "America/Curacao",
      "unlocs": [
        "ANCUR"
      ]
    },
    {
      "id": "ANEUX",
      "name": "Sint Eustatius (Antilles)",
      "city": "Sint Eustatius (Antilles)",
      "country": "Netherlands",
      "alias": [],
      "regions": [],
      "coordinates": [
        -63.08416659999999,
        18.0348259
      ],
      "province": "Sint Maarten",
      "timezone": "America/Curacao",
      "unlocs": [
        "ANEUX"
      ]
    },
    {
      "id": "ANGSB",
      "name": "Galisby",
      "city": "Galisby",
      "country": "Netherlands Antilles",
      "alias": [],
      "regions": [],
      "coordinates": [
        12.1686756,
        -68.4486145
      ],
      "unlocs": [
        "ANGSB"
      ]
    },
    {
      "id": "ANSXM",
      "name": "St Maarten",
      "city": "St Maarten",
      "country": "Netherlands Antilles",
      "alias": [],
      "regions": [],
      "coordinates": [
        -68.81088489999999,
        12.2248767
      ],
      "timezone": "America/Curacao",
      "unlocs": [
        "ANSXM"
      ]
    },
    {
      "id": "ANWIL",
      "name": "Willemstad",
      "city": "Willemstad",
      "country": "Netherlands Antilles",
      "alias": [],
      "regions": [],
      "coordinates": [
        -68.8824233,
        12.1224221
      ],
      "province": "Curaçao",
      "timezone": "America/Curacao",
      "unlocs": [
        "ANWIL"
      ]
    },
    {
      "id": "AOCAB",
      "name": "Cabinda",
      "city": "Cabinda",
      "country": "Angola",
      "alias": [],
      "regions": [],
      "coordinates": [
        12.197583,
        -5.570573899999999
      ],
      "province": "Cabinda",
      "timezone": "Africa/Luanda",
      "unlocs": [
        "AOCAB"
      ],
      "code": "76231"
    },
    {
      "id": "AOLAD",
      "name": "Luanda",
      "city": "Luanda",
      "country": "Angola",
      "alias": [],
      "regions": [],
      "coordinates": [
        13.2894368,
        -8.839987599999999
      ],
      "province": "Luanda",
      "timezone": "Africa/Luanda",
      "unlocs": [
        "AOLAD"
      ],
      "code": "76278"
    },
    {
      "id": "AOMSZ",
      "name": "Namibe",
      "city": "Namibe",
      "country": "Angola",
      "alias": [],
      "regions": [],
      "coordinates": [
        12.1575544,
        -15.1978317
      ],
      "province": "Namibe",
      "timezone": "Africa/Luanda",
      "unlocs": [
        "AOMSZ"
      ],
      "code": "76279"
    },
    {
      "id": "AOSZA",
      "name": "Soyo",
      "city": "Soyo",
      "country": "Angola",
      "alias": [],
      "regions": [],
      "coordinates": [
        12.3521148,
        -6.1410265
      ],
      "province": "Zaire",
      "timezone": "Africa/Luanda",
      "unlocs": [
        "AOSZA"
      ],
      "code": "76281"
    },
    {
      "id": "ARBHI",
      "name": "Bahia Blanca",
      "coordinates": [
        -62.28,
        -38.72
      ],
      "city": "Bahía Blanca",
      "province": "Buenos Aires",
      "country": "Argentina",
      "alias": [],
      "regions": [],
      "timezone": "America/Cordoba",
      "unlocs": [
        "ARBHI"
      ],
      "code": "35701"
    },
    {
      "id": "ARBUE",
      "name": "Buenos Aires",
      "coordinates": [
        -58.67,
        -34.58
      ],
      "city": "Buenos Aires",
      "province": "Ciudad Autónoma de Buenos Aires",
      "country": "Argentina",
      "alias": [],
      "regions": [],
      "timezone": "America/Cordoba",
      "unlocs": [
        "ARBUE"
      ],
      "code": "35705"
    },
    {
      "id": "ARCMP",
      "name": "Campana",
      "coordinates": [
        -58.95,
        -34.15
      ],
      "city": "Campana",
      "province": "Buenos Aires",
      "country": "Argentina",
      "alias": [],
      "regions": [],
      "timezone": "America/Cordoba",
      "unlocs": [
        "ARCMP"
      ],
      "code": "35711"
    },
    {
      "id": "ARCNQ",
      "name": "Corrientes",
      "city": "Corrientes",
      "province": "Corrientes",
      "country": "Argentina",
      "alias": [],
      "regions": [],
      "coordinates": [
        -58.8306349,
        -27.4692131
      ],
      "timezone": "America/Cordoba",
      "unlocs": [
        "ARCNQ"
      ],
      "code": "35700"
    },
    {
      "id": "ARCRD",
      "name": "Comodoro Rivadavia",
      "city": "Comodoro Rivadavia",
      "province": "Chubut",
      "country": "Argentina",
      "alias": [],
      "regions": [],
      "coordinates": [
        -67.4822429,
        -45.8656149
      ],
      "timezone": "America/Cordoba",
      "unlocs": [
        "ARCRD"
      ],
      "code": "35702"
    },
    {
      "id": "ARCVI",
      "name": "Caleta Olivia",
      "city": "Caleta Olivia",
      "province": "Santa Cruz",
      "country": "Argentina",
      "alias": [],
      "regions": [],
      "coordinates": [
        -67.5171533,
        -46.4425647
      ],
      "timezone": "America/Cordoba",
      "unlocs": [
        "ARCVI"
      ],
      "code": "35703"
    },
    {
      "id": "ARDDC",
      "name": "Delta Dock",
      "city": "Delta Dock",
      "province": "Rio Parana",
      "country": "Argentina",
      "alias": [],
      "regions": [],
      "coordinates": [
        -34.0447572,
        -59.199761
      ],
      "unlocs": [
        "ARDDC"
      ],
      "code": "35700"
    },
    {
      "id": "ARLPG",
      "name": "La Plata",
      "coordinates": [
        -57.88,
        -34.85
      ],
      "city": "La Plata",
      "province": "Buenos Aires",
      "country": "Argentina",
      "alias": [],
      "regions": [],
      "timezone": "America/Cordoba",
      "unlocs": [
        "ARLPG"
      ],
      "code": "35737"
    },
    {
      "id": "ARMDQ",
      "name": "Mar del Plata",
      "coordinates": [
        -57.53,
        -38.05
      ],
      "city": "Mar del Plata",
      "province": "Buenos Aires",
      "country": "Argentina",
      "alias": [],
      "regions": [],
      "timezone": "America/Cordoba",
      "unlocs": [
        "ARMDQ"
      ],
      "code": "35739"
    },
    {
      "id": "ARNEC",
      "name": "Necochea",
      "city": "Necochea",
      "province": "Buenos Aires",
      "country": "Argentina",
      "alias": [],
      "regions": [],
      "coordinates": [
        -58.73960879999999,
        -38.5544968
      ],
      "timezone": "America/Cordoba",
      "unlocs": [
        "ARNEC"
      ],
      "code": "35741"
    },
    {
      "id": "AROYA",
      "name": "Goya",
      "city": "Goya",
      "province": "Corrientes",
      "country": "Argentina",
      "alias": [],
      "regions": [],
      "coordinates": [
        -59.2643242,
        -29.1442242
      ],
      "timezone": "America/Cordoba",
      "unlocs": [
        "AROYA"
      ],
      "code": "35700"
    },
    {
      "id": "ARPMY",
      "name": "Puerto Madryn",
      "coordinates": [
        -65.03,
        -42.75
      ],
      "city": "Puerto Madryn",
      "province": "Chubut",
      "country": "Argentina",
      "alias": [],
      "regions": [],
      "timezone": "America/Cordoba",
      "unlocs": [
        "ARPMY"
      ],
      "code": "35740"
    },
    {
      "id": "ARPUD",
      "name": "Puerto Deseado",
      "coordinates": [
        -65.9,
        -47.75
      ],
      "city": "Puerto Deseado",
      "province": "Santa Cruz",
      "country": "Argentina",
      "alias": [],
      "regions": [],
      "timezone": "America/Cordoba",
      "unlocs": [
        "ARPUD"
      ],
      "code": "35745"
    },
    {
      "id": "ARRGA",
      "name": "Rio Grande",
      "coordinates": [
        -67.7,
        -53.78
      ],
      "city": "Río Grande",
      "province": "Tierra del Fuego",
      "country": "Argentina",
      "alias": [],
      "regions": [],
      "timezone": "America/Cordoba",
      "unlocs": [
        "ARRGA"
      ],
      "code": "35700"
    },
    {
      "id": "ARRGL",
      "name": "Rio Gallegos",
      "coordinates": [
        -69.22,
        -51.63
      ],
      "city": "Río Gallegos",
      "province": "Santa Cruz",
      "country": "Argentina",
      "alias": [],
      "regions": [],
      "timezone": "America/Cordoba",
      "unlocs": [
        "ARRGL"
      ],
      "code": "35700"
    },
    {
      "id": "ARRIC",
      "name": "Rio Cullen",
      "city": "Rio Cullen",
      "province": "Zaire",
      "country": "Argentina",
      "alias": [],
      "regions": [],
      "coordinates": [
        -68.3523021,
        -52.8955609
      ],
      "timezone": "America/Argentina",
      "unlocs": [
        "ARRIC"
      ],
      "code": "35700"
    },
    {
      "id": "ARSFN",
      "name": "Santa Fe",
      "coordinates": [
        -60.68,
        -31.6
      ],
      "city": "Santa Fe",
      "province": "Santa Fe",
      "country": "Argentina",
      "alias": [],
      "regions": [],
      "timezone": "America/Cordoba",
      "unlocs": [
        "ARSFN"
      ],
      "code": "35791"
    },
    {
      "id": "ARSLO",
      "name": "San Lorenzo",
      "city": "San Lorenzo",
      "province": "La Pampa",
      "country": "Argentina",
      "alias": [],
      "regions": [],
      "coordinates": [
        -60.7238722,
        -32.8072889
      ],
      "timezone": "America/Cordoba",
      "unlocs": [
        "ARSLO"
      ],
      "code": "35779"
    },
    {
      "id": "ARSNS",
      "name": "San Nicolas de los Arroyos",
      "coordinates": [
        -60.23,
        -33.33
      ],
      "city": "San Nicolás de los Arroyos",
      "province": "Buenos Aires",
      "country": "Argentina",
      "alias": [],
      "regions": [],
      "timezone": "America/Cordoba",
      "unlocs": [
        "ARSNS"
      ],
      "code": "35781"
    },
    {
      "id": "ARSPD",
      "name": "San Pedro",
      "coordinates": [
        -59.17,
        -33.68
      ],
      "city": "San Pedro",
      "province": "Entre Ríos",
      "country": "Argentina",
      "alias": [],
      "regions": [],
      "timezone": "America/Cordoba",
      "unlocs": [
        "ARSPD"
      ],
      "code": "35785"
    },
    {
      "id": "ARUSH",
      "name": "Ushuaia",
      "coordinates": [
        -68.3,
        -54.8
      ],
      "city": "Ushuaia",
      "province": "Tierra del Fuego",
      "country": "Argentina",
      "alias": [],
      "regions": [],
      "timezone": "America/Cordoba",
      "unlocs": [
        "ARUSH"
      ],
      "code": "35700"
    },
    {
      "id": "ARZAE",
      "name": "Zarate",
      "coordinates": [
        -59.03,
        -34.1
      ],
      "city": "Zárate",
      "province": "Buenos Aires",
      "country": "Argentina",
      "alias": [],
      "regions": [],
      "timezone": "America/Cordoba",
      "unlocs": [
        "ARZAE"
      ],
      "code": "35796"
    },
    {
      "id": "ASPPG",
      "name": "Pago Pago",
      "city": "Pago Pago",
      "country": "American Samoa",
      "alias": [],
      "regions": [],
      "coordinates": [
        -170.7020359,
        -14.2756319
      ],
      "province": "Eastern",
      "timezone": "Pacific/Pago_Pago",
      "unlocs": [
        "ASPPG"
      ],
      "code": "95101"
    },
    {
      "id": "ATLTX",
      "timezone": "Europe/Vienna",
      "coordinates": [
        15.7733196,
        48.0337274
      ],
      "name": "Hainfeld",
      "city": "Hainfeld",
      "province": "Niederösterreich",
      "country": "Austria",
      "alias": [],
      "regions": [],
      "unlocs": [
        "ATLTX"
      ],
      "code": "60200"
    },
    {
      "id": "AUADL",
      "name": "Adelaide",
      "coordinates": [
        138.58,
        -34.92
      ],
      "city": "Adelaide",
      "province": "South Australia",
      "country": "Australia",
      "alias": [],
      "regions": [],
      "timezone": "Australia/Adelaide",
      "unlocs": [
        "AUADL"
      ],
      "code": "60201"
    },
    {
      "id": "AUARD",
      "name": "Ardrossan",
      "city": "Ardrossan",
      "province": "South Australia",
      "country": "Australia",
      "alias": [],
      "regions": [],
      "coordinates": [
        137.9174283,
        -34.4230702
      ],
      "timezone": "Australia/Adelaide",
      "unlocs": [
        "AUARD"
      ],
      "code": "60276"
    },
    {
      "id": "AUBEL",
      "name": "Bell Bay",
      "city": "Bell Bay",
      "province": "Tasmania",
      "country": "Australia",
      "alias": [],
      "regions": [],
      "coordinates": [
        146.8635558,
        -41.1154147
      ],
      "timezone": "Australia/Melbourne",
      "unlocs": [
        "AUBEL"
      ],
      "code": "60290"
    },
    {
      "id": "AUBNE",
      "name": "Brisbane",
      "coordinates": [
        153.02,
        -27.47
      ],
      "city": "Brisbane",
      "province": "Queensland",
      "country": "Australia",
      "alias": [],
      "regions": [],
      "timezone": "Australia/Brisbane",
      "unlocs": [
        "AUBNE"
      ],
      "code": "60210"
    },
    {
      "id": "AEE3E2E7",
      "name": "jk",
      "city": "lklj",
      "country": "klj",
      "alias": [
        "lkj"
      ],
      "regions": [
        "lkj"
      ],
      "province": "klj",
      "timezone": "lkj",
      "unlocs": [
        "lkj"
      ],
      "code": "lk"
    }
  ]
}